[
  {
    "name": "R-Ladies Tlalnepantla",
    "id": "37968764",
    "urlname": "rladies-tlalnepantla",
    "country_acronym": "Mexico",
    "state": "",
    "city": "Tlalnepantla",
    "members": 46,
    "lat": 19.54,
    "lon": -99.19,
    "timezone": "America/Mexico_City"
  },
  {
    "name": "R Ladies La Paz Mexico",
    "id": "37925018",
    "urlname": "rladies-la-paz-mexico",
    "country_acronym": "Mexico",
    "state": "",
    "city": "La Paz",
    "members": 9,
    "lat": 24.14,
    "lon": -110.32,
    "timezone": "America/Mazatlan"
  },
  {
    "name": "R-Ladies Cincinnati",
    "id": "37896992",
    "urlname": "rladies-cincinnati-oh",
    "country_acronym": "United States",
    "state": "OH",
    "city": "Cincinnati",
    "members": 8,
    "lat": 39.11,
    "lon": -84.5,
    "timezone": "America/New_York"
  },
  {
    "name": "R-Ladies Wake Forest",
    "id": "37871060",
    "urlname": "rladies-wake-forest",
    "country_acronym": "United States",
    "state": "NC",
    "city": "Wake Forest",
    "members": 9,
    "lat": 35.96,
    "lon": -78.52,
    "timezone": "America/New_York"
  },
  {
    "name": "R-Ladies Limoges",
    "id": "37870339",
    "urlname": "rladies-limoges",
    "country_acronym": "France",
    "state": "",
    "city": "Limoges",
    "members": 74,
    "lat": 45.83,
    "lon": 1.25,
    "timezone": "Europe/Paris"
  },
  {
    "name": "R Ladies Fort Collins",
    "id": "37800965",
    "urlname": "rladies-fort-collins",
    "country_acronym": "United States",
    "state": "CO",
    "city": "Fort Collins",
    "members": 36,
    "lat": 40.58,
    "lon": -105.11,
    "timezone": "America/Denver"
  },
  {
    "name": "R Ladies Tirane",
    "id": "37792883",
    "urlname": "rladies-tirane",
    "country_acronym": "Albania",
    "state": "",
    "city": "Tiranë",
    "members": 165,
    "lat": 41.33,
    "lon": 19.82,
    "timezone": "Europe/Tirane"
  },
  {
    "name": "R-Ladies Cape Coast",
    "id": "37734448",
    "urlname": "rladies-cape-coast",
    "country_acronym": "Ghana",
    "state": "",
    "city": "Cape Coast",
    "members": 100,
    "lat": 5.11,
    "lon": -1.25,
    "timezone": "Africa/Accra"
  },
  {
    "name": "R-Ladies Sheffield",
    "id": "37721013",
    "urlname": "rladies-sheffield",
    "country_acronym": "United Kingdom",
    "state": "37",
    "city": "Sheffield",
    "members": 58,
    "lat": 53.38,
    "lon": -1.46,
    "timezone": "Europe/London"
  },
  {
    "name": "R Ladies Temuco",
    "id": "37710653",
    "urlname": "rladies-temuco",
    "country_acronym": "Chile",
    "state": "",
    "city": "Temuco",
    "members": 83,
    "lat": -38.73,
    "lon": -72.58,
    "timezone": "America/Santiago"
  },
  {
    "name": "R Ladies Guanajuato",
    "id": "37702775",
    "urlname": "rladies-guanajuato",
    "country_acronym": "Mexico",
    "state": "",
    "city": "Guanajuato",
    "members": 37,
    "lat": 21.02,
    "lon": -101.28,
    "timezone": "America/Mexico_City"
  },
  {
    "name": "R Ladies Tepic",
    "id": "37702769",
    "urlname": "rladies-tepic",
    "country_acronym": "Mexico",
    "state": "",
    "city": "Tepic",
    "members": 22,
    "lat": 21.5,
    "lon": -104.89,
    "timezone": "America/Mazatlan"
  },
  {
    "name": "R Ladies Singapore",
    "id": "37702756",
    "urlname": "rladies-singapore-sg",
    "country_acronym": "Singapore",
    "state": "",
    "city": "Singapore",
    "members": 54,
    "lat": 1.3,
    "lon": 103.85,
    "timezone": "Asia/Singapore"
  },
  {
    "name": "R Ladies Zagreb",
    "id": "37605302",
    "urlname": "rladies-zagreb",
    "country_acronym": "Croatia",
    "state": "",
    "city": "Zagreb",
    "members": 9,
    "lat": 45.8,
    "lon": 15.97,
    "timezone": "Europe/Belgrade"
  },
  {
    "name": "R-Ladies Laramie",
    "id": "37488453",
    "urlname": "rladies-laramie",
    "country_acronym": "United States",
    "state": "WY",
    "city": "Laramie",
    "members": 8,
    "lat": 41.3,
    "lon": -105.64,
    "timezone": "America/Denver"
  },
  {
    "name": "R-Ladies Salzburg",
    "id": "37445857",
    "urlname": "rladies-salzburg",
    "country_acronym": "Austria",
    "state": "",
    "city": "Salzburg",
    "members": 104,
    "lat": 47.81,
    "lon": 13.04,
    "timezone": "Europe/Vienna"
  },
  {
    "name": "R-Ladies Kumasi",
    "id": "37262916",
    "urlname": "rladies-kumasi",
    "country_acronym": "Ghana",
    "state": "",
    "city": "Kumasi",
    "members": 297,
    "lat": 6.69,
    "lon": -1.63,
    "timezone": "Africa/Accra"
  },
  {
    "name": "R-Ladies Aurora",
    "id": "37153845",
    "urlname": "rladies-aurora",
    "country_acronym": "United States",
    "state": "CO",
    "city": "Aurora",
    "members": 269,
    "lat": 39.75,
    "lon": -104.84,
    "timezone": "America/Denver"
  },
  {
    "name": "R-Ladies Bishkek",
    "id": "36953256",
    "urlname": "rladies-bishkek",
    "country_acronym": "Kyrgyzstan",
    "state": "",
    "city": "Bishkek",
    "members": 133,
    "lat": 42.87,
    "lon": 74.57,
    "timezone": "Asia/Bishkek"
  },
  {
    "name": "R-Ladies Trondheim",
    "id": "36860426",
    "urlname": "rladies-trondheim",
    "country_acronym": "Norway",
    "state": "",
    "city": "Trondheim",
    "members": 61,
    "lat": 63.44,
    "lon": 10.4,
    "timezone": "Europe/Oslo"
  },
  {
    "name": "R-Ladies Ljubljana",
    "id": "36618082",
    "urlname": "rladies-ljubljana",
    "country_acronym": "Slovenia",
    "state": "",
    "city": "Ljubljana",
    "members": 168,
    "lat": 46.06,
    "lon": 14.51,
    "timezone": "Europe/Belgrade"
  },
  {
    "name": "R-Ladies Louisville",
    "id": "36506652",
    "urlname": "rladies-louisville-ky",
    "country_acronym": "United States",
    "state": "KY",
    "city": "Louisville",
    "members": 23,
    "lat": 38.25,
    "lon": -85.78,
    "timezone": "America/New_York"
  },
  {
    "name": "R-Ladies | SanCristóbalMX | Villahermosa |",
    "id": "36506636",
    "urlname": "rladies-sancristobal",
    "country_acronym": "Mexico",
    "state": "",
    "city": "San Cristóbal de las Casas",
    "members": 129,
    "lat": 16.75,
    "lon": -92.63,
    "timezone": "America/Mexico_City"
  },
  {
    "name": "R-Ladies Fort Pierce",
    "id": "36506535",
    "urlname": "rladies-fort-pierce",
    "country_acronym": "United States",
    "state": "FL",
    "city": "Fort Pierce",
    "members": 16,
    "lat": 27.42,
    "lon": -80.45,
    "timezone": "America/New_York"
  },
  {
    "name": "R-Ladies Wellington",
    "id": "36506465",
    "urlname": "rladies-wellington",
    "country_acronym": "New Zealand",
    "state": "",
    "city": "Wellington",
    "members": 62,
    "lat": -41.28,
    "lon": 174.78,
    "timezone": "Pacific/Auckland"
  },
  {
    "name": "R-Ladies Halifax",
    "id": "36506375",
    "urlname": "rladies-halifax",
    "country_acronym": "Canada",
    "state": "NS",
    "city": "Halifax",
    "members": 134,
    "lat": 44.64,
    "lon": -63.57,
    "timezone": "America/Halifax"
  },
  {
    "name": "R-Ladies Cairo",
    "id": "36506244",
    "urlname": "rladies-cairo",
    "country_acronym": "Egypt",
    "state": "",
    "city": "Cairo",
    "members": 11,
    "lat": 30.06,
    "lon": 31.25,
    "timezone": "Africa/Cairo"
  },
  {
    "name": "R-Ladies Accra",
    "id": "36506211",
    "urlname": "rladies-accra",
    "country_acronym": "Ghana",
    "state": "",
    "city": "Accra",
    "members": 46,
    "lat": 5.56,
    "lon": -0.2,
    "timezone": "Africa/Accra"
  },
  {
    "name": "R-Ladies Stillwater",
    "id": "36506185",
    "urlname": "rladies-stillwater",
    "country_acronym": "United States",
    "state": "OK",
    "city": "Stillwater",
    "members": 55,
    "lat": 36.11,
    "lon": -97.08,
    "timezone": "America/Chicago"
  },
  {
    "name": "R-Ladies Honolulu",
    "id": "36221103",
    "urlname": "rladies-honolulu",
    "country_acronym": "United States",
    "state": "HI",
    "city": "Honolulu",
    "members": 109,
    "lat": 21.33,
    "lon": -157.83,
    "timezone": "Pacific/Honolulu"
  },
  {
    "name": "R-Ladies Rabat",
    "id": "36221061",
    "urlname": "rladies-rabat-ma",
    "country_acronym": "Morocco",
    "state": "",
    "city": "Rabat",
    "members": 524,
    "lat": 34.02,
    "lon": -6.83,
    "timezone": "Africa/Casablanca"
  },
  {
    "name": "R-Ladies Morelia",
    "id": "36155475",
    "urlname": "rladies-morelia",
    "country_acronym": "Mexico",
    "state": "",
    "city": "Morelia",
    "members": 320,
    "lat": 19.72,
    "lon": -101.18,
    "timezone": "America/Mexico_City"
  },
  {
    "name": "R-Ladies Ciudad Obregón",
    "id": "36155463",
    "urlname": "rladies-ciudad-obregon",
    "country_acronym": "Mexico",
    "state": "",
    "city": "Ciudad Obregón",
    "members": 10,
    "lat": 27.49,
    "lon": -109.94,
    "timezone": "America/Hermosillo"
  },
  {
    "name": "R-Ladies Rome",
    "id": "36128420",
    "urlname": "rladies-rome",
    "country_acronym": "Italy",
    "state": "RM",
    "city": "Roma",
    "members": 1969,
    "lat": 41.9,
    "lon": 12.48,
    "timezone": "Europe/Rome"
  },
  {
    "name": "R-Ladies Oxford MS",
    "id": "36128390",
    "urlname": "rladies-oxford-ms",
    "country_acronym": "United States",
    "state": "MS",
    "city": "Oxford",
    "members": 49,
    "lat": 34.35,
    "lon": -89.52,
    "timezone": "America/Chicago"
  },
  {
    "name": "R-Ladies Gaborone",
    "id": "35897820",
    "urlname": "rladies-gaborone",
    "country_acronym": "Botswana",
    "state": "",
    "city": "Gaborone",
    "members": 1124,
    "lat": -24.65,
    "lon": 25.91,
    "timezone": "Africa/Maputo"
  },
  {
    "name": "R-Ladies Cologne",
    "id": "35897809",
    "urlname": "rladies-cologne",
    "country_acronym": "Germany",
    "state": "",
    "city": "Cologne",
    "members": 361,
    "lat": 50.94,
    "lon": 6.96,
    "timezone": "Europe/Berlin"
  },
  {
    "name": "R-Ladies West Lafayette",
    "id": "35897790",
    "urlname": "rladies-west-lafayette",
    "country_acronym": "United States",
    "state": "IN",
    "city": "West Lafayette",
    "members": 31,
    "lat": 40.5,
    "lon": -86.97,
    "timezone": "America/New_York"
  },
  {
    "name": "R-Ladies Villahermosa",
    "id": "35897779",
    "urlname": "rladies-villahermosa",
    "country_acronym": "Mexico",
    "state": "",
    "city": "Villahermosa",
    "members": 226,
    "lat": 17.98,
    "lon": -92.92,
    "timezone": "America/Mexico_City"
  },
  {
    "name": "R-Ladies Bordeaux",
    "id": "35897766",
    "urlname": "rladies-bordeaux",
    "country_acronym": "France",
    "state": "",
    "city": "Bordeaux",
    "members": 37,
    "lat": 44.84,
    "lon": -0.58,
    "timezone": "Europe/Paris"
  },
  {
    "name": "R-Ladies Urmia",
    "id": "35897727",
    "urlname": "rladies-urmia",
    "country_acronym": "Iran",
    "state": "",
    "city": "Orumiyeh",
    "members": 417,
    "lat": 37.53,
    "lon": 45,
    "timezone": "Asia/Tehran"
  },
  {
    "name": "R-Ladies Jeddah",
    "id": "35897702",
    "urlname": "RLadiesJeddah",
    "country_acronym": "Saudi Arabia",
    "state": "",
    "city": "Jeddah",
    "members": 374,
    "lat": 21.5,
    "lon": 39.17,
    "timezone": "Asia/Riyadh"
  },
  {
    "name": "R-Ladies Santo Domingo",
    "id": "35897540",
    "urlname": "rladies-santo-domingo",
    "country_acronym": "Dominican Republic",
    "state": "",
    "city": "Santo Domingo",
    "members": 202,
    "lat": 18.48,
    "lon": -69.91,
    "timezone": "America/Santo_Domingo"
  },
  {
    "name": "R-Ladies Zürich",
    "id": "35897482",
    "urlname": "rladies-zurich",
    "country_acronym": "Switzerland",
    "state": "",
    "city": "Zürich",
    "members": 379,
    "lat": 47.38,
    "lon": 8.54,
    "timezone": "Europe/Zurich"
  },
  {
    "name": "R-Ladies Reading",
    "id": "35897302",
    "urlname": "rladies-reading",
    "country_acronym": "United Kingdom",
    "state": "03",
    "city": "Reading",
    "members": 43,
    "lat": 51.44,
    "lon": -0.95,
    "timezone": "Europe/London"
  },
  {
    "name": "R-Ladies Caracas",
    "id": "35447775",
    "urlname": "rladies-caracas",
    "country_acronym": "Venezuela",
    "state": "",
    "city": "Caracas",
    "members": 37,
    "lat": 10.54,
    "lon": -66.93,
    "timezone": "America/Caracas"
  },
  {
    "name": "R-Ladies Milagro",
    "id": "35058835",
    "urlname": "rladies-milagro",
    "country_acronym": "Ecuador",
    "state": "",
    "city": "Milagro",
    "members": 486,
    "lat": -2.18,
    "lon": -79.6,
    "timezone": "America/Guayaquil"
  },
  {
    "name": "R-Ladies Comitán",
    "id": "34955933",
    "urlname": "rladies-comitan",
    "country_acronym": "Mexico",
    "state": "",
    "city": "Comitan",
    "members": 206,
    "lat": 16.25,
    "lon": -92.13,
    "timezone": "America/Mexico_City"
  },
  {
    "name": "R-Ladies Göttingen",
    "id": "34955861",
    "urlname": "rladies-gottingen",
    "country_acronym": "Germany",
    "state": "",
    "city": "Göttingen",
    "members": 94,
    "lat": 51.53,
    "lon": 9.92,
    "timezone": "Europe/Berlin"
  },
  {
    "name": "R-Ladies Darwin",
    "id": "34931654",
    "urlname": "rladies-darwin",
    "country_acronym": "Australia",
    "state": "",
    "city": "Darwin",
    "members": 28,
    "lat": -12.46,
    "lon": 130.84,
    "timezone": "Australia/Darwin"
  },
  {
    "name": "R-Ladies Brasília",
    "id": "34931648",
    "urlname": "rladies-brasilia",
    "country_acronym": "Brazil",
    "state": "",
    "city": "Brasília",
    "members": 106,
    "lat": -15.78,
    "lon": -47.91,
    "timezone": "America/Sao_Paulo"
  },
  {
    "name": "R-Ladies Thessaloníki",
    "id": "34931629",
    "urlname": "rladies-thessaloniki",
    "country_acronym": "Greece",
    "state": "",
    "city": "Thessaloníki",
    "members": 64,
    "lat": 40.64,
    "lon": 22.94,
    "timezone": "Europe/Athens"
  },
  {
    "name": "R-Ladies Athens Greece",
    "id": "34931588",
    "urlname": "rladies-athens-gr",
    "country_acronym": "Greece",
    "state": "",
    "city": "Athens",
    "members": 36,
    "lat": 37.98,
    "lon": 23.73,
    "timezone": "Europe/Athens"
  },
  {
    "name": "R-Ladies Kingston",
    "id": "34931554",
    "urlname": "rladies-kingston",
    "country_acronym": "Canada",
    "state": "ON",
    "city": "Kingston",
    "members": 47,
    "lat": 44.22,
    "lon": -76.51,
    "timezone": "America/Toronto"
  },
  {
    "name": "R-Ladies São Mateus",
    "id": "34931513",
    "urlname": "rladies-sao-mateus",
    "country_acronym": "Brazil",
    "state": "",
    "city": "São Mateus",
    "members": 24,
    "lat": -18.73,
    "lon": -39.86,
    "timezone": "America/Sao_Paulo"
  },
  {
    "name": "R-Ladies Izmir",
    "id": "34787581",
    "urlname": "rladies-izmir",
    "country_acronym": "Turkey",
    "state": "",
    "city": "Izmir",
    "members": 388,
    "lat": 38.43,
    "lon": 27.15,
    "timezone": "Europe/Istanbul"
  },
  {
    "name": "R-Ladies Kuala Lumpur",
    "id": "34524973",
    "urlname": "rladies-kuala-lumpur",
    "country_acronym": "Malaysia",
    "state": "",
    "city": "Kuala Lumpur",
    "members": 64,
    "lat": 3.16,
    "lon": 101.71,
    "timezone": "Asia/Kuala_Lumpur"
  },
  {
    "name": "R-Ladies Jujuy",
    "id": "34516330",
    "urlname": "rladies-jujuy",
    "country_acronym": "Argentina",
    "state": "",
    "city": "Jujuy",
    "members": 181,
    "lat": -24.19,
    "lon": -65.3,
    "timezone": "America/Argentina/Jujuy"
  },
  {
    "name": "R Ladies Aarhus",
    "id": "34516308",
    "urlname": "rladies-aarhus",
    "country_acronym": "Denmark",
    "state": "",
    "city": "Aarhus",
    "members": 70,
    "lat": 56.16,
    "lon": 10.2,
    "timezone": "Europe/Copenhagen"
  },
  {
    "name": "R-Ladies Saudi Arabia (Dammam)",
    "id": "34516206",
    "urlname": "rladies-dammam",
    "country_acronym": "Saudi Arabia",
    "state": "",
    "city": "Dammam",
    "members": 667,
    "lat": 26.42,
    "lon": 50.09,
    "timezone": "Asia/Riyadh"
  },
  {
    "name": "R-Ladies Tijuana",
    "id": "34142165",
    "urlname": "rladies-tijuana",
    "country_acronym": "Mexico",
    "state": "",
    "city": "Tijuana",
    "members": 70,
    "lat": 32.53,
    "lon": -117.02,
    "timezone": "America/Tijuana"
  },
  {
    "name": "R-Ladies Guadalajara",
    "id": "34099620",
    "urlname": "rladies-guadalajara",
    "country_acronym": "Mexico",
    "state": "",
    "city": "Guadalajara",
    "members": 1685,
    "lat": 20.67,
    "lon": -103.35,
    "timezone": "America/Mexico_City"
  },
  {
    "name": "R-Ladies Bangalore",
    "id": "34086060",
    "urlname": "rladies-bangalore",
    "country_acronym": "India",
    "state": "",
    "city": "Bangalore",
    "members": 392,
    "lat": 12.97,
    "lon": 77.56,
    "timezone": "Asia/Kolkata"
  },
  {
    "name": "R-Ladies Asunción",
    "id": "33917745",
    "urlname": "rladies-asuncion",
    "country_acronym": "Paraguay",
    "state": "",
    "city": "Asunción",
    "members": 129,
    "lat": -25.3,
    "lon": -57.63,
    "timezone": "America/Asuncion"
  },
  {
    "name": "R-Ladies Waltham",
    "id": "33917673",
    "urlname": "rladies-waltham",
    "country_acronym": "United States",
    "state": "MA",
    "city": "Waltham",
    "members": 32,
    "lat": 42.4,
    "lon": -71.26,
    "timezone": "America/New_York"
  },
  {
    "name": "R-Ladies Banda Aceh",
    "id": "33880224",
    "urlname": "rladies-banda-aceh",
    "country_acronym": "Indonesia",
    "state": "",
    "city": "Banda Aceh",
    "members": 140,
    "lat": 5.55,
    "lon": 95.32,
    "timezone": "Asia/Jakarta"
  },
  {
    "name": "R-Ladies Glasgow",
    "id": "33880125",
    "urlname": "rladies-glasgow",
    "country_acronym": "United Kingdom",
    "state": "V2",
    "city": "Glasgow",
    "members": 151,
    "lat": 55.86,
    "lon": -4.24,
    "timezone": "Europe/London"
  },
  {
    "name": "R-Ladies Nairobi",
    "id": "33827845",
    "urlname": "rladies-nairobi",
    "country_acronym": "Kenya",
    "state": "",
    "city": "Nairobi",
    "members": 1843,
    "lat": -1.29,
    "lon": 36.82,
    "timezone": "Africa/Nairobi"
  },
  {
    "name": "R-Ladies Cochabamba",
    "id": "33825315",
    "urlname": "rladies-cochabamba",
    "country_acronym": "Bolivia",
    "state": "",
    "city": "Cochabamba",
    "members": 54,
    "lat": -17.38,
    "lon": -66.17,
    "timezone": "America/La_Paz"
  },
  {
    "name": "R-Ladies Curitiba",
    "id": "33825235",
    "urlname": "rladies-curitiba",
    "country_acronym": "Brazil",
    "state": "",
    "city": "Curitiba",
    "members": 99,
    "lat": -25.42,
    "lon": -49.29,
    "timezone": "America/Sao_Paulo"
  },
  {
    "name": "R-Ladies Fortaleza",
    "id": "33810889",
    "urlname": "rladies-fortaleza",
    "country_acronym": "Brazil",
    "state": "",
    "city": "Fortaleza",
    "members": 118,
    "lat": -3.78,
    "lon": -38.59,
    "timezone": "America/Fortaleza"
  },
  {
    "name": "R-Ladies Natal",
    "id": "33801315",
    "urlname": "rladies-natal",
    "country_acronym": "Brazil",
    "state": "",
    "city": "Natal",
    "members": 450,
    "lat": -5.8,
    "lon": -35.22,
    "timezone": "America/Fortaleza"
  },
  {
    "name": "R-Ladies Ushuaia",
    "id": "33725126",
    "urlname": "rladies-ushuaia",
    "country_acronym": "Argentina",
    "state": "",
    "city": "Ushuaia",
    "members": 34,
    "lat": -54.79,
    "lon": -68.31,
    "timezone": "America/Argentina/Buenos_Aires"
  },
  {
    "name": "R-Ladies Tunis",
    "id": "33719616",
    "urlname": "rladies-tunis",
    "country_acronym": "Tunisia",
    "state": "",
    "city": "Tunis",
    "members": 1057,
    "lat": 36.84,
    "lon": 10.22,
    "timezone": "Africa/Tunis"
  },
  {
    "name": "R-Ladies Talca",
    "id": "33717562",
    "urlname": "rladies-talca",
    "country_acronym": "Chile",
    "state": "",
    "city": "Talca",
    "members": 201,
    "lat": -35.42,
    "lon": -71.66,
    "timezone": "America/Santiago"
  },
  {
    "name": "R-Ladies Cordoba",
    "id": "33717527",
    "urlname": "rladies-cordoba",
    "country_acronym": "Argentina",
    "state": "",
    "city": "Córdoba",
    "members": 32,
    "lat": -31.4,
    "lon": -64.19,
    "timezone": "America/Argentina/Cordoba"
  },
  {
    "name": "R-Ladies Cusco",
    "id": "33704099",
    "urlname": "rladies-cusco",
    "country_acronym": "Peru",
    "state": "",
    "city": "Cusco",
    "members": 106,
    "lat": -13.52,
    "lon": -71.99,
    "timezone": "America/Lima"
  },
  {
    "name": "R-Ladies Algiers",
    "id": "33683539",
    "urlname": "rladies-algiers",
    "country_acronym": "Algeria",
    "state": "",
    "city": "al-Jaza´ir",
    "members": 726,
    "lat": 36.77,
    "lon": 3.04,
    "timezone": "Africa/Algiers"
  },
  {
    "name": "R-Ladies Barranquilla",
    "id": "33683503",
    "urlname": "rladies-barranquilla",
    "country_acronym": "Colombia",
    "state": "",
    "city": "Barranquilla",
    "members": 635,
    "lat": 11,
    "lon": -74.82,
    "timezone": "America/Bogota"
  },
  {
    "name": "R-Ladies General Pico",
    "id": "33554403",
    "urlname": "rladies-general-pico",
    "country_acronym": "Argentina",
    "state": "",
    "city": "General Pico",
    "members": 62,
    "lat": -35.66,
    "lon": -63.77,
    "timezone": "America/Argentina/Cordoba"
  },
  {
    "name": "R-Ladies Ribeirão Preto",
    "id": "33504173",
    "urlname": "rladies-ribeirao-preto",
    "country_acronym": "Brazil",
    "state": "",
    "city": "Ribeirão Preto",
    "members": 627,
    "lat": -21.17,
    "lon": -47.8,
    "timezone": "America/Sao_Paulo"
  },
  {
    "name": "R-Ladies Abuja",
    "id": "33291403",
    "urlname": "rladies-abuja",
    "country_acronym": "Nigeria",
    "state": "",
    "city": "Abuja",
    "members": 2171,
    "lat": 9.18,
    "lon": 7.17,
    "timezone": "Africa/Lagos"
  },
  {
    "name": "R-Ladies Aguascalientes",
    "id": "33409736",
    "urlname": "rladies-aguascalientes",
    "country_acronym": "Mexico",
    "state": "",
    "city": "Aguascalientes",
    "members": 391,
    "lat": 21.88,
    "lon": -102.3,
    "timezone": "America/Mexico_City"
  },
  {
    "name": "R-Ladies Coventry",
    "id": "33409671",
    "urlname": "rladies-coventry",
    "country_acronym": "United Kingdom",
    "state": "43",
    "city": "Coventry",
    "members": 1020,
    "lat": 52.42,
    "lon": -1.5,
    "timezone": "Europe/London"
  },
  {
    "name": "R-Ladies Niš",
    "id": "33409584",
    "urlname": "rladies-nis",
    "country_acronym": "Serbia",
    "state": "",
    "city": "Niš",
    "members": 33,
    "lat": 43.33,
    "lon": 21.9,
    "timezone": "Europe/Belgrade"
  },
  {
    "name": "R-Ladies Ha Noi",
    "id": "33361775",
    "urlname": "rladies-ha-noi",
    "country_acronym": "Vietnam",
    "state": "",
    "city": "Ha Noi",
    "members": 123,
    "lat": 21.03,
    "lon": 105.84,
    "timezone": "Asia/Ho_Chi_Minh"
  },
  {
    "name": "R-Ladies Monterrey",
    "id": "33194964",
    "urlname": "rladies-monterrey",
    "country_acronym": "Mexico",
    "state": "",
    "city": "Monterrey",
    "members": 413,
    "lat": 25.67,
    "lon": -100.32,
    "timezone": "America/Monterrey"
  },
  {
    "name": "R-Ladies Oxford",
    "id": "33194933",
    "urlname": "rladies-oxford",
    "country_acronym": "United Kingdom",
    "state": "K2",
    "city": "Oxford",
    "members": 60,
    "lat": 51.76,
    "lon": -1.26,
    "timezone": "Europe/London"
  },
  {
    "name": "R-Ladies Galapagos Islands",
    "id": "33194871",
    "urlname": "rladies-galapagos-islands",
    "country_acronym": "Ecuador",
    "state": "",
    "city": "Puerto Ayora",
    "members": 471,
    "lat": -0.74,
    "lon": -90.32,
    "timezone": "Pacific/Galapagos"
  },
  {
    "name": "R-Ladies Yaoundé",
    "id": "33166554",
    "urlname": "rladies-yaounde",
    "country_acronym": "Cameroon",
    "state": "",
    "city": "Yaoundé",
    "members": 128,
    "lat": 3.87,
    "lon": 11.52,
    "timezone": "Africa/Lagos"
  },
  {
    "name": "R-Ladies Mid-Mo",
    "id": "33107363",
    "urlname": "rladies-mid-mo",
    "country_acronym": "United States",
    "state": "MO",
    "city": "Columbia",
    "members": 158,
    "lat": 38.9,
    "lon": -92.25,
    "timezone": "America/Chicago"
  },
  {
    "name": "R-Ladies Colombo",
    "id": "33106550",
    "urlname": "rladies-colombo",
    "country_acronym": "Sri Lanka",
    "state": "",
    "city": "Colombo",
    "members": 525,
    "lat": 6.93,
    "lon": 79.85,
    "timezone": "Asia/Colombo"
  },
  {
    "name": "R-Ladies New Orleans",
    "id": "33061717",
    "urlname": "rladies-new-orleans",
    "country_acronym": "United States",
    "state": "LA",
    "city": "New Orleans",
    "members": 90,
    "lat": 29.96,
    "lon": -90.08,
    "timezone": "America/Chicago"
  },
  {
    "name": "R-Ladies Syracuse",
    "id": "33061635",
    "urlname": "rladies-syracuse",
    "country_acronym": "United States",
    "state": "NY",
    "city": "Syracuse",
    "members": 40,
    "lat": 43.04,
    "lon": -76.15,
    "timezone": "America/New_York"
  },
  {
    "name": "R-Ladies Mumbai",
    "id": "33041359",
    "urlname": "rladies-mumbai",
    "country_acronym": "India",
    "state": "",
    "city": "Mumbai",
    "members": 143,
    "lat": 18.96,
    "lon": 72.82,
    "timezone": "Asia/Kolkata"
  },
  {
    "name": "R-Ladies Göteborg",
    "id": "33041322",
    "urlname": "rladies-goteborg",
    "country_acronym": "Sweden",
    "state": "",
    "city": "Göteborg",
    "members": 172,
    "lat": 57.72,
    "lon": 12.01,
    "timezone": "Europe/Stockholm"
  },
  {
    "name": "R-Ladies Oxford Ohio",
    "id": "33041271",
    "urlname": "rladies-oxford-ohio",
    "country_acronym": "United States",
    "state": "OH",
    "city": "Oxford",
    "members": 77,
    "lat": 39.49,
    "lon": -84.74,
    "timezone": "America/New_York"
  },
  {
    "name": "R-Ladies Al-Khartum",
    "id": "33041212",
    "urlname": "rladies-al-khartum",
    "country_acronym": "Sudan",
    "state": "",
    "city": "al-Khartum",
    "members": 110,
    "lat": 15.58,
    "lon": 32.52,
    "timezone": "Africa/Khartoum"
  },
  {
    "name": "R-Ladies Eskisehir",
    "id": "33007398",
    "urlname": "rladies-eskisehir",
    "country_acronym": "Turkey",
    "state": "",
    "city": "Eskisehir",
    "members": 230,
    "lat": 39.79,
    "lon": 30.52,
    "timezone": "Europe/Istanbul"
  },
  {
    "name": "R-Ladies Beijing",
    "id": "33007355",
    "urlname": "rladies-beijing",
    "country_acronym": "China",
    "state": "",
    "city": "Beijing",
    "members": 68,
    "lat": 39.93,
    "lon": 116.4,
    "timezone": "Asia/Shanghai"
  },
  {
    "name": "R-Ladies Muscat",
    "id": "32964072",
    "urlname": "rladies-muscat",
    "country_acronym": "Oman",
    "state": "",
    "city": "Muscat",
    "members": 381,
    "lat": 23.61,
    "lon": 58.54,
    "timezone": "Asia/Muscat"
  },
  {
    "name": "R-Ladies Bergen",
    "id": "32946570",
    "urlname": "rladies-bergen",
    "country_acronym": "Norway",
    "state": "",
    "city": "Bergen",
    "members": 394,
    "lat": 60.38,
    "lon": 5.34,
    "timezone": "Europe/Oslo"
  },
  {
    "name": "R-Ladies Pune",
    "id": "32826541",
    "urlname": "rladies-pune",
    "country_acronym": "India",
    "state": "",
    "city": "Pune",
    "members": 158,
    "lat": 18.53,
    "lon": 73.84,
    "timezone": "Asia/Kolkata"
  },
  {
    "name": "R-Ladies Vitória",
    "id": "32826513",
    "urlname": "rladies-vitoria",
    "country_acronym": "Brazil",
    "state": "",
    "city": "Vitória",
    "members": 333,
    "lat": -20.31,
    "lon": -40.31,
    "timezone": "America/Sao_Paulo"
  },
  {
    "name": "R-Ladies Medellín",
    "id": "32823667",
    "urlname": "rladies-medellin",
    "country_acronym": "Colombia",
    "state": "",
    "city": "Medellín",
    "members": 1171,
    "lat": 6.25,
    "lon": -75.59,
    "timezone": "America/Bogota"
  },
  {
    "name": "R-Ladies Podgorica",
    "id": "32783356",
    "urlname": "rladies-podgorica",
    "country_acronym": "Montenegro",
    "state": "",
    "city": "Podgorica",
    "members": 74,
    "lat": 42.47,
    "lon": 19.28,
    "timezone": "Europe/Belgrade"
  },
  {
    "name": "R-Ladies Pachuca",
    "id": "32767673",
    "urlname": "rladies-pachuca",
    "country_acronym": "Mexico",
    "state": "",
    "city": "Pachuca",
    "members": 38,
    "lat": 20.12,
    "lon": -98.76,
    "timezone": "America/Mexico_City"
  },
  {
    "name": "R-Ladies Calgary",
    "id": "32763890",
    "urlname": "rladies-calgary",
    "country_acronym": "Canada",
    "state": "AB",
    "city": "Calgary",
    "members": 229,
    "lat": 51.04,
    "lon": -114.06,
    "timezone": "America/Edmonton"
  },
  {
    "name": "R-Ladies Recife",
    "id": "32713369",
    "urlname": "rladies-recife",
    "country_acronym": "Brazil",
    "state": "",
    "city": "Recife",
    "members": 161,
    "lat": -8.08,
    "lon": -34.92,
    "timezone": "America/Recife"
  },
  {
    "name": "R-Ladies New Delhi",
    "id": "32705558",
    "urlname": "rladies-new-delhi",
    "country_acronym": "India",
    "state": "",
    "city": "Delhi",
    "members": 447,
    "lat": 28.67,
    "lon": 77.21,
    "timezone": "Asia/Kolkata"
  },
  {
    "name": "R-Ladies Athens",
    "id": "32702266",
    "urlname": "rladies-athens-ga",
    "country_acronym": "United States",
    "state": "GA",
    "city": "Athens",
    "members": 102,
    "lat": 33.97,
    "lon": -83.36,
    "timezone": "America/New_York"
  },
  {
    "name": "R-Ladies L'viv",
    "id": "32702177",
    "urlname": "rladies-lviv",
    "country_acronym": "Ukraine",
    "state": "",
    "city": "L'viv",
    "members": 58,
    "lat": 49.84,
    "lon": 24.03,
    "timezone": "Europe/Kiev"
  },
  {
    "name": "R-Ladies Lagos",
    "id": "32612004",
    "urlname": "rladies-lagos",
    "country_acronym": "Nigeria",
    "state": "",
    "city": "Lagos",
    "members": 880,
    "lat": 6.45,
    "lon": 3.47,
    "timezone": "Africa/Lagos"
  },
  {
    "name": "R-Ladies Lexington Park",
    "id": "32611075",
    "urlname": "rladies-lexington-park",
    "country_acronym": "United States",
    "state": "MD",
    "city": "Lexington Park",
    "members": 64,
    "lat": 38.27,
    "lon": -76.46,
    "timezone": "America/New_York"
  },
  {
    "name": "R-Ladies Cuernavaca",
    "id": "32604355",
    "urlname": "rladies-cuernavaca",
    "country_acronym": "Mexico",
    "state": "",
    "city": "Cuernavaca",
    "members": 1550,
    "lat": 18.92,
    "lon": -99.25,
    "timezone": "America/Mexico_City"
  },
  {
    "name": "R-Ladies Riverside",
    "id": "32522592",
    "urlname": "rladies-riverside",
    "country_acronym": "United States",
    "state": "CA",
    "city": "Riverside",
    "members": 496,
    "lat": 33.99,
    "lon": -117.37,
    "timezone": "America/Los_Angeles"
  },
  {
    "name": "R-Ladies Fayetteville",
    "id": "32478325",
    "urlname": "rladies-fayetteville",
    "country_acronym": "United States",
    "state": "AR",
    "city": "Fayetteville",
    "members": 187,
    "lat": 36.05,
    "lon": -94.14,
    "timezone": "America/Chicago"
  },
  {
    "name": "R-Ladies Puebla",
    "id": "32426344",
    "urlname": "rladies-puebla",
    "country_acronym": "Mexico",
    "state": "",
    "city": "Puebla",
    "members": 2533,
    "lat": 19.05,
    "lon": -98.22,
    "timezone": "America/Mexico_City"
  },
  {
    "name": "R-Ladies Kansas City",
    "id": "32426227",
    "urlname": "rladies-kansas-city",
    "country_acronym": "United States",
    "state": "MO",
    "city": "Kansas City",
    "members": 78,
    "lat": 39.1,
    "lon": -94.6,
    "timezone": "America/Chicago"
  },
  {
    "name": "R-Ladies Jakarta",
    "id": "32327430",
    "urlname": "rladies-jakarta",
    "country_acronym": "Indonesia",
    "state": "",
    "city": "Jakarta",
    "members": 608,
    "lat": -6.18,
    "lon": 106.83,
    "timezone": "Asia/Jakarta"
  },
  {
    "name": "R-Ladies Denver",
    "id": "32308998",
    "urlname": "rladies-denver",
    "country_acronym": "United States",
    "state": "CO",
    "city": "Denver",
    "members": 169,
    "lat": 39.7,
    "lon": -105.08,
    "timezone": "America/Denver"
  },
  {
    "name": "R-Ladies Ankara",
    "id": "32299165",
    "urlname": "rladies-ankara",
    "country_acronym": "Turkey",
    "state": "",
    "city": "Ankara",
    "members": 714,
    "lat": 39.93,
    "lon": 32.85,
    "timezone": "Europe/Istanbul"
  },
  {
    "name": "R-Ladies Utrecht",
    "id": "32144791",
    "urlname": "rladies-utrecht",
    "country_acronym": "Netherlands",
    "state": "",
    "city": "Utrecht",
    "members": 378,
    "lat": 52.1,
    "lon": 5.11,
    "timezone": "Europe/Amsterdam"
  },
  {
    "name": "R-Ladies Novi Sad",
    "id": "32012873",
    "urlname": "rladies-novi-sad",
    "country_acronym": "Serbia",
    "state": "",
    "city": "Novi Sad",
    "members": 159,
    "lat": 45.25,
    "lon": 19.85,
    "timezone": "Europe/Belgrade"
  },
  {
    "name": "R-Ladies Bucharest",
    "id": "31859491",
    "urlname": "rladies-bucharest",
    "country_acronym": "Romania",
    "state": "",
    "city": "Bucharest",
    "members": 269,
    "lat": 44.44,
    "lon": 26.1,
    "timezone": "Europe/Bucharest"
  },
  {
    "name": "R-Ladies Highland Park",
    "id": "31858594",
    "urlname": "rladies-highland-park",
    "country_acronym": "United States",
    "state": "NJ",
    "city": "Highland Park",
    "members": 84,
    "lat": 40.5,
    "lon": -74.43,
    "timezone": "America/New_York"
  },
  {
    "name": "R-Ladies Goiânia",
    "id": "31829495",
    "urlname": "rladies-goiania",
    "country_acronym": "Brazil",
    "state": "",
    "city": "Goiania",
    "members": 613,
    "lat": -16.72,
    "lon": -49.26,
    "timezone": "America/Sao_Paulo"
  },
  {
    "name": "R-Ladies Christchurch",
    "id": "31807417",
    "urlname": "rladies-christchurch",
    "country_acronym": "New Zealand",
    "state": "",
    "city": "Christchurch",
    "members": 95,
    "lat": -43.53,
    "lon": 172.64,
    "timezone": "Pacific/Auckland"
  },
  {
    "name": "R-Ladies El Paso",
    "id": "31679846",
    "urlname": "rladies-el-paso",
    "country_acronym": "United States",
    "state": "TX",
    "city": "El Paso",
    "members": 117,
    "lat": 31.76,
    "lon": -106.49,
    "timezone": "America/Denver"
  },
  {
    "name": "R-Ladies Concepción",
    "id": "31653468",
    "urlname": "rladies-concepcion",
    "country_acronym": "Chile",
    "state": "",
    "city": "Concepción",
    "members": 737,
    "lat": -36.83,
    "lon": -73.05,
    "timezone": "America/Santiago"
  },
  {
    "name": "R-Ladies Lavras",
    "id": "31653398",
    "urlname": "rladies-lavras",
    "country_acronym": "Brazil",
    "state": "",
    "city": "Lavras",
    "members": 106,
    "lat": -21.25,
    "lon": -45.01,
    "timezone": "America/Sao_Paulo"
  },
  {
    "name": "R-Ladies Belo Horizonte",
    "id": "28226484",
    "urlname": "rladies-belo-horizonte",
    "country_acronym": "Brazil",
    "state": "",
    "city": "Belo Horizonte",
    "members": 963,
    "lat": -19.92,
    "lon": -43.94,
    "timezone": "America/Sao_Paulo"
  },
  {
    "name": "R-Ladies Montevideo",
    "id": "24222373",
    "urlname": "rladies-montevideo",
    "country_acronym": "Uruguay",
    "state": "",
    "city": "Montevideo",
    "members": 530,
    "lat": -34.87,
    "lon": -56.17,
    "timezone": "America/Montevideo"
  },
  {
    "name": "R-Ladies Rio de Janeiro",
    "id": "22664282",
    "urlname": "rladies-rio",
    "country_acronym": "Brazil",
    "state": "",
    "city": "Rio de Janeiro",
    "members": 645,
    "lat": -22.91,
    "lon": -43.2,
    "timezone": "America/Sao_Paulo"
  },
  {
    "name": "R-Ladies Buenos Aires",
    "id": "21760043",
    "urlname": "rladies-buenos-aires",
    "country_acronym": "Argentina",
    "state": "",
    "city": "Buenos Aires",
    "members": 1966,
    "lat": -34.61,
    "lon": -58.37,
    "timezone": "America/Argentina/Buenos_Aires"
  },
  {
    "name": "R-Ladies Floripa",
    "id": "31577218",
    "urlname": "rladies-florianopolis",
    "country_acronym": "Brazil",
    "state": "",
    "city": "Florianópolis",
    "members": 632,
    "lat": -27.6,
    "lon": -48.54,
    "timezone": "America/Sao_Paulo"
  },
  {
    "name": "R-Ladies Bogor",
    "id": "31577107",
    "urlname": "rladies-bogor",
    "country_acronym": "Indonesia",
    "state": "",
    "city": "Bogor",
    "members": 352,
    "lat": -6.58,
    "lon": 106.79,
    "timezone": "Asia/Jakarta"
  },
  {
    "name": "R-Ladies Bogotá",
    "id": "26017877",
    "urlname": "rladies-bogota",
    "country_acronym": "Colombia",
    "state": "",
    "city": "Bogotá",
    "members": 342,
    "lat": 4.63,
    "lon": -74.09,
    "timezone": "America/Bogota"
  },
  {
    "name": "R-Ladies St. Louis",
    "id": "25681976",
    "urlname": "rladies-st-louis",
    "country_acronym": "United States",
    "state": "MO",
    "city": "Saint Louis",
    "members": 2086,
    "lat": 38.63,
    "lon": -90.19,
    "timezone": "America/Chicago"
  },
  {
    "name": "R-Ladies Taipei",
    "id": "20871369",
    "urlname": "rladies-taipei",
    "country_acronym": "Taiwan",
    "state": "",
    "city": "Taipei",
    "members": 2565,
    "lat": 25.02,
    "lon": 121.45,
    "timezone": "Asia/Taipei"
  },
  {
    "name": "R-Ladies Twin Cities",
    "id": "18529799",
    "urlname": "rladies-tc",
    "country_acronym": "United States",
    "state": "MN",
    "city": "Minneapolis",
    "members": 485,
    "lat": 44.94,
    "lon": -93.22,
    "timezone": "America/Chicago"
  },
  {
    "name": "R-Ladies Queretaro",
    "id": "31514006",
    "urlname": "rladies-queretaro",
    "country_acronym": "Mexico",
    "state": "",
    "city": "Querétaro",
    "members": 1247,
    "lat": 20.59,
    "lon": -100.4,
    "timezone": "America/Mexico_City"
  },
  {
    "name": "R-Ladies Nelson",
    "id": "31457211",
    "urlname": "rladies-nelson",
    "country_acronym": "New Zealand",
    "state": "",
    "city": "Nelson",
    "members": 26,
    "lat": -41.29,
    "lon": 173.24,
    "timezone": "Pacific/Auckland"
  },
  {
    "name": "R-Ladies Den Bosch",
    "id": "31457077",
    "urlname": "rladies-den-bosch",
    "country_acronym": "Netherlands",
    "state": "",
    "city": "Den Bosch",
    "members": 196,
    "lat": 51.7,
    "lon": 5.3,
    "timezone": "Europe/Amsterdam"
  },
  {
    "name": "R-Ladies Bilbao",
    "id": "31264653",
    "urlname": "rladies-bilbao",
    "country_acronym": "Spain",
    "state": "",
    "city": "Bilbao",
    "members": 274,
    "lat": 43.25,
    "lon": -2.93,
    "timezone": "Europe/Madrid"
  },
  {
    "name": "R-Ladies Newcastle",
    "id": "31264590",
    "urlname": "rladies-newcastle",
    "country_acronym": "United Kingdom",
    "state": "41",
    "city": "Newcastle Upon Tyne",
    "members": 286,
    "lat": 55,
    "lon": -1.6,
    "timezone": "Europe/London"
  },
  {
    "name": "R-Ladies Frankfurt",
    "id": "31264536",
    "urlname": "rladies-frankfurt",
    "country_acronym": "Germany",
    "state": "",
    "city": "Frankfurt",
    "members": 102,
    "lat": 50.12,
    "lon": 8.68,
    "timezone": "Europe/Berlin"
  },
  {
    "name": "R-Ladies Kyiv",
    "id": "31174585",
    "urlname": "rladies-kyiv",
    "country_acronym": "Ukraine",
    "state": "",
    "city": "Kyiv",
    "members": 342,
    "lat": 50.44,
    "lon": 30.52,
    "timezone": "Europe/Kiev"
  },
  {
    "name": "R-Ladies Freiburg",
    "id": "30994180",
    "urlname": "rladies-freiburg",
    "country_acronym": "Germany",
    "state": "",
    "city": "Freiburg",
    "members": 1047,
    "lat": 47.99,
    "lon": 7.85,
    "timezone": "Europe/Berlin"
  },
  {
    "name": "R-Ladies Canberra",
    "id": "30680825",
    "urlname": "rladies-canberra",
    "country_acronym": "Australia",
    "state": "",
    "city": "Canberra",
    "members": 233,
    "lat": -35.31,
    "lon": 149.13,
    "timezone": "Australia/Sydney"
  },
  {
    "name": "R-Ladies Houston",
    "id": "30666379",
    "urlname": "rladies-houston",
    "country_acronym": "United States",
    "state": "TX",
    "city": "Houston",
    "members": 155,
    "lat": 29.72,
    "lon": -95.22,
    "timezone": "America/Chicago"
  },
  {
    "name": "R-Ladies Ottawa",
    "id": "30655714",
    "urlname": "rladies-ottawa",
    "country_acronym": "Canada",
    "state": "ON",
    "city": "Ottawa",
    "members": 1076,
    "lat": 45.45,
    "lon": -75.69,
    "timezone": "America/Toronto"
  },
  {
    "name": "R-Ladies Charlottesville",
    "id": "26004745",
    "urlname": "rladies-charlottesville",
    "country_acronym": "United States",
    "state": "VA",
    "city": "Charlottesville",
    "members": 437,
    "lat": 38,
    "lon": -78.46,
    "timezone": "America/New_York"
  },
  {
    "name": "R-Ladies Santa Rosa",
    "id": "23174619",
    "urlname": "rladies-santa-rosa",
    "country_acronym": "Argentina",
    "state": "",
    "city": "Santa Rosa",
    "members": 185,
    "lat": -36.62,
    "lon": -64.3,
    "timezone": "America/Argentina/Cordoba"
  },
  {
    "name": "R-Ladies Lyon",
    "id": "30421186",
    "urlname": "rladies-lyon",
    "country_acronym": "France",
    "state": "",
    "city": "Lyon",
    "members": 86,
    "lat": 45.76,
    "lon": 4.83,
    "timezone": "Europe/Paris"
  },
  {
    "name": "R-Ladies Strasbourg",
    "id": "26068732",
    "urlname": "rladies-strasbourg",
    "country_acronym": "France",
    "state": "",
    "city": "Strasbourg",
    "members": 84,
    "lat": 48.58,
    "lon": 7.75,
    "timezone": "Europe/Paris"
  },
  {
    "name": "R-Ladies Philly",
    "id": "26229746",
    "urlname": "rladies-philly",
    "country_acronym": "United States",
    "state": "PA",
    "city": "Philadelphia",
    "members": 2604,
    "lat": 40.12,
    "lon": -75.01,
    "timezone": "America/New_York"
  },
  {
    "name": "R-Ladies San Jose",
    "id": "26203679",
    "urlname": "rladies-san-jose",
    "country_acronym": "Costa Rica",
    "state": "",
    "city": "San Jose",
    "members": 706,
    "lat": 9.93,
    "lon": -84.08,
    "timezone": "America/Costa_Rica"
  },
  {
    "name": "R-Ladies Brussels",
    "id": "25492745",
    "urlname": "rladies-brussels",
    "country_acronym": "Belgium",
    "state": "",
    "city": "Brussels",
    "members": 240,
    "lat": 50.83,
    "lon": 4.33,
    "timezone": "Europe/Brussels"
  },
  {
    "name": "R-Ladies PDX",
    "id": "25057217",
    "urlname": "rladies-pdx",
    "country_acronym": "United States",
    "state": "OR",
    "city": "Portland",
    "members": 303,
    "lat": 45.5,
    "lon": -122.69,
    "timezone": "America/Los_Angeles"
  },
  {
    "name": "R-Ladies Vancouver",
    "id": "26169684",
    "urlname": "rladies-vancouver",
    "country_acronym": "Canada",
    "state": "BC",
    "city": "Vancouver",
    "members": 813,
    "lat": 49.28,
    "lon": -123.04,
    "timezone": "America/Vancouver"
  },
  {
    "name": "R-Ladies Chicago",
    "id": "24848073",
    "urlname": "rladies-chicago",
    "country_acronym": "United States",
    "state": "IL",
    "city": "Chicago",
    "members": 1440,
    "lat": 41.88,
    "lon": -87.62,
    "timezone": "America/Chicago"
  },
  {
    "name": "R-Ladies CDMX",
    "id": "24820200",
    "urlname": "rladies-cdmx",
    "country_acronym": "Mexico",
    "state": "",
    "city": "México City",
    "members": 2933,
    "lat": 19.43,
    "lon": -99.14,
    "timezone": "America/Mexico_City"
  },
  {
    "name": "R-Ladies Orlando",
    "id": "24292488",
    "urlname": "rladies-orlando",
    "country_acronym": "United States",
    "state": "FL",
    "city": "Orlando",
    "members": 330,
    "lat": 28.54,
    "lon": -81.37,
    "timezone": "America/New_York"
  },
  {
    "name": "R-Ladies Miami",
    "id": "24259185",
    "urlname": "rladies-miami",
    "country_acronym": "United States",
    "state": "FL",
    "city": "Miami",
    "members": 1301,
    "lat": 25.78,
    "lon": -80.2,
    "timezone": "America/New_York"
  },
  {
    "name": "R-Ladies Buffalo",
    "id": "24100709",
    "urlname": "rladies-buffalo",
    "country_acronym": "United States",
    "state": "NY",
    "city": "Buffalo",
    "members": 36,
    "lat": 42.9,
    "lon": -78.88,
    "timezone": "America/New_York"
  },
  {
    "name": "R-Ladies Cape Town",
    "id": "22790744",
    "urlname": "rladies-cape-town",
    "country_acronym": "South Africa",
    "state": "",
    "city": "Cape Town",
    "members": 720,
    "lat": -33.93,
    "lon": 18.46,
    "timezone": "Africa/Johannesburg"
  },
  {
    "name": "R-Ladies Adelaide",
    "id": "22202405",
    "urlname": "rladies-adelaide",
    "country_acronym": "Australia",
    "state": "",
    "city": "Adelaide",
    "members": 336,
    "lat": -34.93,
    "lon": 138.6,
    "timezone": "Australia/Adelaide"
  },
  {
    "name": "R-Ladies Chennai",
    "id": "26276685",
    "urlname": "rladies-chennai",
    "country_acronym": "India",
    "state": "",
    "city": "Chennai",
    "members": 710,
    "lat": 13.09,
    "lon": 80.27,
    "timezone": "Asia/Kolkata"
  },
  {
    "name": "R-Ladies Pasadena",
    "id": "28280039",
    "urlname": "rladies-pasadena",
    "country_acronym": "United States",
    "state": "CA",
    "city": "Pasadena",
    "members": 117,
    "lat": 34.15,
    "lon": -118.14,
    "timezone": "America/Los_Angeles"
  },
  {
    "name": "R-Ladies San Diego",
    "id": "24506595",
    "urlname": "rladies-san-diego",
    "country_acronym": "United States",
    "state": "CA",
    "city": "San Diego",
    "members": 670,
    "lat": 32.75,
    "lon": -117.17,
    "timezone": "America/Los_Angeles"
  },
  {
    "name": "R-Ladies Austin",
    "id": "22180445",
    "urlname": "rladies-austin",
    "country_acronym": "United States",
    "state": "TX",
    "city": "Austin",
    "members": 648,
    "lat": 30.22,
    "lon": -97.75,
    "timezone": "America/Chicago"
  },
  {
    "name": "R-Ladies Tbilisi",
    "id": "21313292",
    "urlname": "rladies-tbilisi",
    "country_acronym": "Georgia",
    "state": "",
    "city": "Tbilisi",
    "members": 443,
    "lat": 41.72,
    "lon": 44.79,
    "timezone": "Asia/Tbilisi"
  },
  {
    "name": "R-Ladies Budapest",
    "id": "22066895",
    "urlname": "rladies-budapest",
    "country_acronym": "Hungary",
    "state": "",
    "city": "Budapest",
    "members": 887,
    "lat": 47.51,
    "lon": 19.08,
    "timezone": "Europe/Budapest"
  },
  {
    "name": "R-Ladies Ames",
    "id": "21280054",
    "urlname": "rladies-ames",
    "country_acronym": "United States",
    "state": "IA",
    "city": "Ames",
    "members": 290,
    "lat": 42.03,
    "lon": -93.64,
    "timezone": "America/Chicago"
  },
  {
    "name": "R-Ladies Dublin",
    "id": "21149852",
    "urlname": "rladies-dublin",
    "country_acronym": "Ireland",
    "state": "",
    "city": "Dublin",
    "members": 854,
    "lat": 53.33,
    "lon": -6.25,
    "timezone": "Europe/Dublin"
  },
  {
    "name": "R-Ladies Berlin",
    "id": "20977178",
    "urlname": "rladies-berlin",
    "country_acronym": "Germany",
    "state": "",
    "city": "Berlin",
    "members": 710,
    "lat": 52.52,
    "lon": 13.38,
    "timezone": "Europe/Berlin"
  },
  {
    "name": "R-Ladies Barcelona",
    "id": "20851840",
    "urlname": "rladies-barcelona",
    "country_acronym": "Spain",
    "state": "",
    "city": "Barcelona",
    "members": 754,
    "lat": 41.4,
    "lon": 2.17,
    "timezone": "Europe/Madrid"
  },
  {
    "name": "R-Ladies Manchester",
    "id": "21314716",
    "urlname": "rladies-manchester",
    "country_acronym": "United Kingdom",
    "state": "18",
    "city": "Manchester",
    "members": 585,
    "lat": 53.47,
    "lon": -2.23,
    "timezone": "Europe/London"
  },
  {
    "name": "R-Ladies Columbus",
    "id": "20600376",
    "urlname": "rladies-columbus",
    "country_acronym": "United States",
    "state": "OH",
    "city": "Columbus",
    "members": 950,
    "lat": 40.01,
    "lon": -83.02,
    "timezone": "America/New_York"
  },
  {
    "name": "R-Ladies Nashville",
    "id": "20493986",
    "urlname": "rladies-nashville",
    "country_acronym": "United States",
    "state": "TN",
    "city": "Nashville",
    "members": 527,
    "lat": 36.17,
    "lon": -86.78,
    "timezone": "America/Chicago"
  },
  {
    "name": "R-Ladies Istanbul",
    "id": "20394109",
    "urlname": "rladies-istanbul",
    "country_acronym": "Turkey",
    "state": "",
    "city": "Istanbul",
    "members": 1957,
    "lat": 41.01,
    "lon": 28.96,
    "timezone": "Europe/Istanbul"
  },
  {
    "name": "R-Ladies Madrid",
    "id": "20381623",
    "urlname": "rladies-madrid",
    "country_acronym": "Spain",
    "state": "",
    "city": "Madrid",
    "members": 1887,
    "lat": 40.42,
    "lon": -3.71,
    "timezone": "Europe/Madrid"
  },
  {
    "name": "R-Ladies Melbourne",
    "id": "20378903",
    "urlname": "rladies-melbourne",
    "country_acronym": "Australia",
    "state": "",
    "city": "Melbourne",
    "members": 2684,
    "lat": -37.81,
    "lon": 144.96,
    "timezone": "Australia/Melbourne"
  },
  {
    "name": "R-Ladies RTP",
    "id": "20317472",
    "urlname": "rladies-rtp",
    "country_acronym": "United States",
    "state": "NC",
    "city": "Durham",
    "members": 1085,
    "lat": 36,
    "lon": -78.9,
    "timezone": "America/New_York"
  },
  {
    "name": "R-Ladies London",
    "id": "19474893",
    "urlname": "rladies-london",
    "country_acronym": "United Kingdom",
    "state": "17",
    "city": "London",
    "members": 1525,
    "lat": 51.52,
    "lon": -0.1,
    "timezone": "Europe/London"
  },
  {
    "name": "R-Ladies Perth",
    "id": "30375344",
    "urlname": "rladies-perth",
    "country_acronym": "Australia",
    "state": "",
    "city": "Perth",
    "members": 277,
    "lat": -31.96,
    "lon": 115.84,
    "timezone": "Australia/Perth"
  },
  {
    "name": "R-Ladies La Paz",
    "id": "30375244",
    "urlname": "rladies-la-paz",
    "country_acronym": "Bolivia",
    "state": "",
    "city": "La Paz",
    "members": 352,
    "lat": -16.5,
    "lon": -68.15,
    "timezone": "America/La_Paz"
  },
  {
    "name": "R-Ladies Montpellier",
    "id": "30339934",
    "urlname": "rladies-montpellier",
    "country_acronym": "France",
    "state": "",
    "city": "Montpellier",
    "members": 154,
    "lat": 43.61,
    "lon": 3.87,
    "timezone": "Europe/Paris"
  },
  {
    "name": "R-Ladies Kathmandu",
    "id": "30017254",
    "urlname": "rladies-kathmandu",
    "country_acronym": "Nepal",
    "state": "",
    "city": "Kathmandu",
    "members": 114,
    "lat": 27.71,
    "lon": 85.31,
    "timezone": "Asia/Kathmandu"
  },
  {
    "name": "R-Ladies Des Moines",
    "id": "29929892",
    "urlname": "rladies-des-moines",
    "country_acronym": "United States",
    "state": "IA",
    "city": "Des Moines",
    "members": 34,
    "lat": 41.6,
    "lon": -93.63,
    "timezone": "America/Chicago"
  },
  {
    "name": "R-Ladies Iowa City",
    "id": "29865126",
    "urlname": "rladies-iowa-city",
    "country_acronym": "United States",
    "state": "IA",
    "city": "Iowa City",
    "members": 161,
    "lat": 41.66,
    "lon": -91.53,
    "timezone": "America/Chicago"
  },
  {
    "name": "R-Ladies Toronto",
    "id": "29862217",
    "urlname": "rladies-toronto",
    "country_acronym": "Canada",
    "state": "ON",
    "city": "Toronto",
    "members": 766,
    "lat": 43.74,
    "lon": -79.36,
    "timezone": "America/Toronto"
  },
  {
    "name": "R-Ladies Vienna",
    "id": "29851462",
    "urlname": "rladies-vienna",
    "country_acronym": "Austria",
    "state": "",
    "city": "Vienna",
    "members": 515,
    "lat": 48.22,
    "lon": 16.37,
    "timezone": "Europe/Vienna"
  },
  {
    "name": "R-Ladies Lancaster",
    "id": "29783351",
    "urlname": "rladies-lancaster",
    "country_acronym": "United Kingdom",
    "state": "H2",
    "city": "Lancaster",
    "members": 206,
    "lat": 54.05,
    "lon": -2.8,
    "timezone": "Europe/London"
  },
  {
    "name": "R-Ladies Helsinki",
    "id": "29734242",
    "urlname": "rladies-helsinki",
    "country_acronym": "Finland",
    "state": "",
    "city": "Helsinki",
    "members": 508,
    "lat": 60.17,
    "lon": 24.94,
    "timezone": "Europe/Helsinki"
  },
  {
    "name": "R-Ladies Stockholm",
    "id": "29540437",
    "urlname": "rladies-stockholm",
    "country_acronym": "Sweden",
    "state": "",
    "city": "Stockholm",
    "members": 401,
    "lat": 59.33,
    "lon": 18.07,
    "timezone": "Europe/Stockholm"
  },
  {
    "name": "R-Ladies Xalapa",
    "id": "29397372",
    "urlname": "rladies-xalapa",
    "country_acronym": "Mexico",
    "state": "",
    "city": "Xalapa",
    "members": 678,
    "lat": 19.53,
    "lon": -96.92,
    "timezone": "America/Mexico_City"
  },
  {
    "name": "R-Ladies Edinburgh",
    "id": "29370129",
    "urlname": "rladies-edinburgh",
    "country_acronym": "United Kingdom",
    "state": "U8",
    "city": "Edinburgh",
    "members": 844,
    "lat": 55.95,
    "lon": -3.22,
    "timezone": "Europe/London"
  },
  {
    "name": "R-Ladies Salvador",
    "id": "29332380",
    "urlname": "rladies-salvador",
    "country_acronym": "Brazil",
    "state": "",
    "city": "Salvador",
    "members": 361,
    "lat": -12.97,
    "lon": -38.5,
    "timezone": "America/Bahia"
  },
  {
    "name": "R-Ladies Gainesville",
    "id": "29096058",
    "urlname": "rladies-gainesville",
    "country_acronym": "United States",
    "state": "FL",
    "city": "Gainesville",
    "members": 495,
    "lat": 29.65,
    "lon": -82.3,
    "timezone": "America/New_York"
  },
  {
    "name": "R-Ladies Remote",
    "id": "28887085",
    "urlname": "rladies-remote",
    "country_acronym": "United States",
    "state": "CA",
    "city": "San Francisco",
    "members": 684,
    "lat": 37.78,
    "lon": -122.42,
    "timezone": "America/Los_Angeles"
  },
  {
    "name": "R-Ladies Boulder",
    "id": "28789217",
    "urlname": "rladies-boulder",
    "country_acronym": "United States",
    "state": "CO",
    "city": "Boulder",
    "members": 311,
    "lat": 40.05,
    "lon": -105.21,
    "timezone": "America/Denver"
  },
  {
    "name": "R-Ladies São Paulo",
    "id": "27456719",
    "urlname": "rladies-sao-paulo",
    "country_acronym": "Brazil",
    "state": "",
    "city": "São Paulo",
    "members": 1818,
    "lat": -23.53,
    "lon": -46.63,
    "timezone": "America/Sao_Paulo"
  },
  {
    "name": "R-Ladies Belgrade",
    "id": "25935651",
    "urlname": "rladies-belgrade",
    "country_acronym": "Serbia",
    "state": "",
    "city": "Belgrade",
    "members": 506,
    "lat": 44.83,
    "lon": 20.5,
    "timezone": "Europe/Belgrade"
  },
  {
    "name": "R-Ladies Montreal",
    "id": "25925303",
    "urlname": "rladies-montreal",
    "country_acronym": "Canada",
    "state": "QC",
    "city": "Montréal",
    "members": 678,
    "lat": 45.5,
    "lon": -73.57,
    "timezone": "America/Toronto"
  },
  {
    "name": "R-Ladies London, Ontario",
    "id": "21965959",
    "urlname": "rladies-ldnont",
    "country_acronym": "Canada",
    "state": "ON",
    "city": "London",
    "members": 507,
    "lat": 43.01,
    "lon": -81.18,
    "timezone": "America/Toronto"
  },
  {
    "name": "R-Ladies Resistencia-Corrientes",
    "id": "28753666",
    "urlname": "rladies-resistencia-corrientes",
    "country_acronym": "Argentina",
    "state": "",
    "city": "Corrientes",
    "members": 210,
    "lat": -27.49,
    "lon": -58.81,
    "timezone": "America/Argentina/Cordoba"
  },
  {
    "name": "R-Ladies Boston",
    "id": "20433637",
    "urlname": "rladies-boston",
    "country_acronym": "United States",
    "state": "MA",
    "city": "Boston",
    "members": 1029,
    "lat": 42.36,
    "lon": -71.07,
    "timezone": "America/New_York"
  },
  {
    "name": "R-Ladies Quito",
    "id": "25039212",
    "urlname": "rladies-quito",
    "country_acronym": "Ecuador",
    "state": "",
    "city": "Quito",
    "members": 989,
    "lat": -0.19,
    "lon": -78.5,
    "timezone": "America/Guayaquil"
  },
  {
    "name": "R-Ladies Santiago",
    "id": "25039094",
    "urlname": "rladies-scl",
    "country_acronym": "Chile",
    "state": "",
    "city": "Santiago",
    "members": 2954,
    "lat": -33.46,
    "lon": -70.64,
    "timezone": "America/Santiago"
  },
  {
    "name": "R-Ladies Milan",
    "id": "24752511",
    "urlname": "rladies-milan",
    "country_acronym": "Italy",
    "state": "MI",
    "city": "Milano",
    "members": 1307,
    "lat": 45.46,
    "lon": 9.19,
    "timezone": "Europe/Rome"
  },
  {
    "name": "R-Ladies Washington D.C.",
    "id": "21510971",
    "urlname": "rladies-dc",
    "country_acronym": "United States",
    "state": "DC",
    "city": "Washington",
    "members": 3014,
    "lat": 38.91,
    "lon": -77.02,
    "timezone": "America/New_York"
  },
  {
    "name": "R-Ladies New York",
    "id": "20346526",
    "urlname": "rladiesnyc",
    "country_acronym": "United States",
    "state": "NY",
    "city": "New York",
    "members": 3333,
    "lat": 40.75,
    "lon": -73.99,
    "timezone": "America/New_York"
  },
  {
    "name": "R-Ladies Niterói",
    "id": "28706674",
    "urlname": "rladies-niteroi",
    "country_acronym": "Brazil",
    "state": "",
    "city": "Niterói",
    "members": 1161,
    "lat": -22.9,
    "lon": -43.13,
    "timezone": "America/Sao_Paulo"
  },
  {
    "name": "R-Ladies Valparaíso",
    "id": "28530966",
    "urlname": "rladies-valparaiso",
    "country_acronym": "Chile",
    "state": "",
    "city": "Valparaíso",
    "members": 606,
    "lat": -33.04,
    "lon": -71.64,
    "timezone": "America/Santiago"
  },
  {
    "name": "R-Ladies Bari",
    "id": "28519562",
    "urlname": "rladies-bari",
    "country_acronym": "Italy",
    "state": "BA",
    "city": "Bari",
    "members": 184,
    "lat": 41.13,
    "lon": 16.87,
    "timezone": "Europe/Rome"
  },
  {
    "name": "R-Ladies Brisbane",
    "id": "28448818",
    "urlname": "rladies-brisbane",
    "country_acronym": "Australia",
    "state": "",
    "city": "Brisbane",
    "members": 893,
    "lat": -27.46,
    "lon": 153.02,
    "timezone": "Australia/Brisbane"
  },
  {
    "name": "R-Ladies Bariloche",
    "id": "28441250",
    "urlname": "rladies-bariloche",
    "country_acronym": "Argentina",
    "state": "",
    "city": "San Carlos de Bariloche",
    "members": 582,
    "lat": -41.14,
    "lon": -71.32,
    "timezone": "America/Argentina/Cordoba"
  },
  {
    "name": "R-Ladies Sydney",
    "id": "28436046",
    "urlname": "rladies-sydney",
    "country_acronym": "Australia",
    "state": "",
    "city": "Sydney",
    "members": 1092,
    "lat": -33.87,
    "lon": 151.21,
    "timezone": "Australia/Sydney"
  },
  {
    "name": "R-Ladies Santa Fe",
    "id": "28424845",
    "urlname": "rladies-santa-fe",
    "country_acronym": "Argentina",
    "state": "",
    "city": "Santa Fe",
    "members": 223,
    "lat": -31.6,
    "lon": -60.69,
    "timezone": "America/Argentina/Cordoba"
  },
  {
    "name": "R-Ladies Nijmegen",
    "id": "28393787",
    "urlname": "rladies-nijmegen",
    "country_acronym": "Netherlands",
    "state": "",
    "city": "Nijmegen",
    "members": 362,
    "lat": 51.84,
    "lon": 5.85,
    "timezone": "Europe/Amsterdam"
  },
  {
    "name": "R-Ladies Guayaquil",
    "id": "28062692",
    "urlname": "rladies-guayaquil",
    "country_acronym": "Ecuador",
    "state": "",
    "city": "Guayaquil",
    "members": 1128,
    "lat": -2.21,
    "lon": -79.9,
    "timezone": "America/Guayaquil"
  },
  {
    "name": "R-Ladies Porto Alegre",
    "id": "26434176",
    "urlname": "rladies-porto-alegre",
    "country_acronym": "Brazil",
    "state": "",
    "city": "Porto Alegre",
    "members": 400,
    "lat": -30.04,
    "lon": -51.22,
    "timezone": "America/Sao_Paulo"
  },
  {
    "name": "R-Ladies East Lansing",
    "id": "26829576",
    "urlname": "rladies-east-lansing",
    "country_acronym": "United States",
    "state": "MI",
    "city": "East Lansing",
    "members": 870,
    "lat": 42.65,
    "lon": -84.49,
    "timezone": "America/New_York"
  },
  {
    "name": "R-Ladies Rotterdam",
    "id": "26792997",
    "urlname": "rladies-rotterdam",
    "country_acronym": "Netherlands",
    "state": "",
    "city": "Rotterdam",
    "members": 514,
    "lat": 51.93,
    "lon": 4.48,
    "timezone": "Europe/Amsterdam"
  },
  {
    "name": "R-Ladies Lausanne",
    "id": "26765765",
    "urlname": "rladies-lausanne",
    "country_acronym": "Switzerland",
    "state": "",
    "city": "Lausanne",
    "members": 336,
    "lat": 46.52,
    "lon": 6.62,
    "timezone": "Europe/Zurich"
  },
  {
    "name": "R-Ladies Copenhagen",
    "id": "26653718",
    "urlname": "rladies-copenhagen",
    "country_acronym": "Denmark",
    "state": "",
    "city": "Copenhagen",
    "members": 468,
    "lat": 55.68,
    "lon": 12.57,
    "timezone": "Europe/Copenhagen"
  },
  {
    "name": "R-Ladies Auckland",
    "id": "26653882",
    "urlname": "rladies-auckland",
    "country_acronym": "New Zealand",
    "state": "",
    "city": "Auckland",
    "members": 775,
    "lat": -36.85,
    "lon": 174.76,
    "timezone": "Pacific/Auckland"
  },
  {
    "name": "R-Ladies Cambridge",
    "id": "26556368",
    "urlname": "rladies-cambridge",
    "country_acronym": "United Kingdom",
    "state": "C3",
    "city": "Cambridge",
    "members": 621,
    "lat": 52.2,
    "lon": 0.11,
    "timezone": "Europe/London"
  },
  {
    "name": "R-Ladies Amsterdam",
    "id": "27443387",
    "urlname": "rladies-amsterdam",
    "country_acronym": "Netherlands",
    "state": "",
    "city": "Amsterdam",
    "members": 1440,
    "lat": 52.37,
    "lon": 4.89,
    "timezone": "Europe/Amsterdam"
  },
  {
    "name": "R-Ladies Cotonou",
    "id": "27986524",
    "urlname": "rladies-cotonou",
    "country_acronym": "Benin",
    "state": "",
    "city": "Cotonou",
    "members": 44,
    "lat": 6.36,
    "lon": 2.44,
    "timezone": "Africa/Lagos"
  },
  {
    "name": "R-Ladies Seattle",
    "id": "26537030",
    "urlname": "rladies-seattle",
    "country_acronym": "United States",
    "state": "WA",
    "city": "Seattle",
    "members": 1393,
    "lat": 47.61,
    "lon": -122.33,
    "timezone": "America/Los_Angeles"
  },
  {
    "name": "R-Ladies Addis Ababa",
    "id": "27902133",
    "urlname": "rladies-addis-ababa",
    "country_acronym": "Ethiopia",
    "state": "",
    "city": "Addis Abeba",
    "members": 868,
    "lat": 9.03,
    "lon": 38.74,
    "timezone": "Africa/Nairobi"
  },
  {
    "name": "R-Ladies Irvine",
    "id": "27819387",
    "urlname": "rladies-irvine",
    "country_acronym": "United States",
    "state": "CA",
    "city": "Irvine",
    "members": 657,
    "lat": 33.65,
    "lon": -117.84,
    "timezone": "America/Los_Angeles"
  },
  {
    "name": "R-Ladies Tampa",
    "id": "27797804",
    "urlname": "rladies-tampa",
    "country_acronym": "United States",
    "state": "FL",
    "city": "Tampa",
    "members": 324,
    "lat": 27.98,
    "lon": -82.34,
    "timezone": "America/New_York"
  },
  {
    "name": "R-Ladies Dallas",
    "id": "27724373",
    "urlname": "rladies-dallas",
    "country_acronym": "United States",
    "state": "TX",
    "city": "Dallas",
    "members": 758,
    "lat": 32.79,
    "lon": -96.8,
    "timezone": "America/Chicago"
  },
  {
    "name": "R-Ladies Johannesburg",
    "id": "27651490",
    "urlname": "rladies-johannesburg",
    "country_acronym": "South Africa",
    "state": "",
    "city": "Johannesburg",
    "members": 1120,
    "lat": -26.19,
    "lon": 28.04,
    "timezone": "Africa/Johannesburg"
  },
  {
    "name": "R-Ladies Oslo",
    "id": "27651457",
    "urlname": "rladies-oslo",
    "country_acronym": "Norway",
    "state": "",
    "city": "Oslo",
    "members": 579,
    "lat": 59.91,
    "lon": 10.75,
    "timezone": "Europe/Oslo"
  },
  {
    "name": "R-Ladies Baltimore",
    "id": "27651413",
    "urlname": "rladies-baltimore",
    "country_acronym": "United States",
    "state": "MD",
    "city": "Baltimore",
    "members": 1565,
    "lat": 39.29,
    "lon": -76.62,
    "timezone": "America/New_York"
  },
  {
    "name": "R-Ladies Mendoza",
    "id": "27651345",
    "urlname": "rladies-mendoza",
    "country_acronym": "Argentina",
    "state": "",
    "city": "Mendoza",
    "members": 346,
    "lat": -32.89,
    "lon": -68.83,
    "timezone": "America/Argentina/Mendoza"
  },
  {
    "name": "R-Ladies Santa Barbara",
    "id": "27283931",
    "urlname": "rladies-santa-barbara",
    "country_acronym": "United States",
    "state": "CA",
    "city": "Santa Barbara",
    "members": 808,
    "lat": 34.42,
    "lon": -119.71,
    "timezone": "America/Los_Angeles"
  },
  {
    "name": "R-Ladies Lima",
    "id": "27269070",
    "urlname": "rladies-lima",
    "country_acronym": "Peru",
    "state": "",
    "city": "Lima",
    "members": 2294,
    "lat": -12.07,
    "lon": -77.05,
    "timezone": "America/Lima"
  },
  {
    "name": "R-Ladies Atlanta",
    "id": "26871250",
    "urlname": "rladies-atlanta",
    "country_acronym": "United States",
    "state": "GA",
    "city": "Atlanta",
    "members": 376,
    "lat": 33.86,
    "lon": -84.4,
    "timezone": "America/New_York"
  },
  {
    "name": "R-Ladies Paris",
    "id": "20443056",
    "urlname": "rladies-paris",
    "country_acronym": "France",
    "state": "",
    "city": "Paris",
    "members": 1143,
    "lat": 48.86,
    "lon": 2.34,
    "timezone": "Europe/Paris"
  },
  {
    "name": "R-Ladies Los Angeles",
    "id": "20382018",
    "urlname": "rladies-la",
    "country_acronym": "United States",
    "state": "CA",
    "city": "Los Angeles",
    "members": 651,
    "lat": 34.07,
    "lon": -118.45,
    "timezone": "America/Los_Angeles"
  },
  {
    "name": "R-Ladies San Francisco",
    "id": "5190472",
    "urlname": "rladies-san-francisco",
    "country_acronym": "United States",
    "state": "CA",
    "city": "San Francisco",
    "members": 1723,
    "lat": 37.79,
    "lon": -122.4,
    "timezone": "America/Los_Angeles"
  }
]
